{
  "metadata": {
    "query": {
      "businessType": "lavanderias",
      "city": "culiacan",
      "country": "México"
    },
    "totalResults": 45,
    "exportedAt": "2026-01-11T22:19:55.734Z"
  },
  "businesses": [
    {
      "position": 1,
      "name": "Tintorería Pretty Clean - Las Quintas",
      "rating": 4.5,
      "reviewCount": null,
      "category": "Tintorería",
      "address": "Blvrd Sinaloa 1116-L-2",
      "phone": "667 584 2586",
      "website": null,
      "hours": "Cerrado",
      "profileUrl": "https://www.google.com/maps/place/Tintorer%C3%ADa+Pretty+Clean+-+Las+Quintas/data=!4m7!3m6!1s0x86bcd9eefa0c0063:0x61b3afb5720a6919!8m2!3d24.818906!4d-107.3737568!16s%2Fg%2F11ld2bywnp!19sChIJYwAM-u7ZvIYRGWkKcrWvs2E?authuser=0&hl=es&rclk=1",
      "scrapedAt": "2026-01-11T22:19:55.426Z"
    },
    {
      "position": 2,
      "name": "Tintorería Pressto Culiacán",
      "rating": 4.5,
      "reviewCount": null,
      "category": "Tintorería",
      "address": "Blvd. Emiliano Zapata 1061",
      "phone": "667 712 6036",
      "website": "http://tintoreriaspressto.com.mx/",
      "hours": "Cerrado",
      "profileUrl": "https://www.google.com/maps/place/Tintorer%C3%ADa+Pressto+Culiac%C3%A1n/data=!4m7!3m6!1s0x86bcd0b6b05cc3e9:0xfc62ba554cf8b7ce!8m2!3d24.816474!4d-107.3743435!16s%2Fg%2F1v8gcgtl!19sChIJ6cNcsLbQvIYRzrf4TFW6Yvw?authuser=0&hl=es&rclk=1",
      "scrapedAt": "2026-01-11T22:19:55.457Z"
    },
    {
      "position": 3,
      "name": "Planchaduria angelito",
      "rating": 5,
      "reviewCount": null,
      "category": "Servicio de lavandería",
      "address": "Estado de Puebla 1419",
      "phone": "667 295 9134",
      "website": null,
      "hours": "Cerrado",
      "profileUrl": "https://www.google.com/maps/place/Planchaduria+angelito/data=!4m7!3m6!1s0x86bcd79b9988cec7:0xe4be4128e6cac634!8m2!3d24.8152062!4d-107.3736847!16s%2Fg%2F11nyjq4srq!19sChIJx86ImZvXvIYRNMbK5ihBvuQ?authuser=0&hl=es&rclk=1",
      "scrapedAt": "2026-01-11T22:19:55.468Z"
    },
    {
      "position": 4,
      "name": "Tint",
      "rating": 4.8,
      "reviewCount": null,
      "category": "Tintorería",
      "address": "RETORNO JOSE, Diego Valadés Ríos 1517 OTE-L. 3 Y 4",
      "phone": null,
      "website": "https://www.clynmembers.com/sucursal-culiacan-1/",
      "hours": "Cerrado",
      "profileUrl": "https://www.google.com/maps/place/Tint/data=!4m7!3m6!1s0x86bcd9fedb927fc3:0xdebdc3210db0977f!8m2!3d24.8213042!4d-107.3814334!16s%2Fg%2F11c5btp083!19sChIJw3-S2_7ZvIYRf5ewDSHDvd4?authuser=0&hl=es&rclk=1",
      "scrapedAt": "2026-01-11T22:19:55.468Z"
    },
    {
      "position": 5,
      "name": "Bubba clean",
      "rating": 5,
      "reviewCount": null,
      "category": "Lavandería de autoservicio",
      "address": "5,0",
      "phone": "80065 Cancun 1494 local 3 olaza Bariloche, Fracc Musalá Isla Bonita",
      "website": null,
      "hours": "Cerrado",
      "profileUrl": "https://www.google.com/maps/place/Bubba+clean/data=!4m7!3m6!1s0x86bcd9a8b83812f5:0x1206f2517f52a6df!8m2!3d24.82342!4d-107.3689067!16s%2Fg%2F11h6d6149n!19sChIJ9RI4uKjZvIYR36ZSf1HyBhI?authuser=0&hl=es&rclk=1",
      "scrapedAt": "2026-01-11T22:19:55.468Z"
    },
    {
      "position": 6,
      "name": "Titoreria La Familiar",
      "rating": 5,
      "reviewCount": null,
      "category": "Tintorería",
      "address": "Blvrd Dr Mora 1702A",
      "phone": "667 690 7359",
      "website": null,
      "hours": null,
      "profileUrl": "https://www.google.com/maps/place/Titoreria+La+Familiar/data=!4m7!3m6!1s0x86bcd758d738e3f7:0xe76d9307491060ff!8m2!3d24.8156754!4d-107.3677834!16s%2Fg%2F11dym3q44n!19sChIJ9-M411jXvIYR_2AQSQeTbec?authuser=0&hl=es&rclk=1",
      "scrapedAt": "2026-01-11T22:19:55.468Z"
    },
    {
      "position": 7,
      "name": "Tintoreria El Angel",
      "rating": 4.5,
      "reviewCount": null,
      "category": "Tintorería",
      "address": "4,5",
      "phone": "667 712 0381",
      "website": null,
      "hours": "Cerrado",
      "profileUrl": "https://www.google.com/maps/place/Tintoreria+El+Angel/data=!4m7!3m6!1s0x86bcd0ab03ccf939:0xd1a84c40315db7ef!8m2!3d24.812862!4d-107.3874109!16s%2Fg%2F11dfjwql97!19sChIJOfnMA6vQvIYR77ddMUBMqNE?authuser=0&hl=es&rclk=1",
      "scrapedAt": "2026-01-11T22:19:55.468Z"
    },
    {
      "position": 8,
      "name": "LA PLANCHADURIA",
      "rating": null,
      "reviewCount": null,
      "category": "No hay reseñas",
      "address": "Gran Avenida El Dorado 1632",
      "phone": null,
      "website": null,
      "hours": null,
      "profileUrl": "https://www.google.com/maps/place/LA+PLANCHADURIA/data=!4m7!3m6!1s0x86bcd9e284053edd:0xaa613d516b93f375!8m2!3d24.8183372!4d-107.3705089!16s%2Fg%2F11y3ytc_nf!19sChIJ3T4FhOLZvIYRdfOTa1E9Yao?authuser=0&hl=es&rclk=1",
      "scrapedAt": "2026-01-11T22:19:55.490Z"
    },
    {
      "position": 9,
      "name": "Lavandería Barcelona",
      "rating": null,
      "reviewCount": null,
      "category": "No hay reseñas",
      "address": "calle ciudad de reynosa #1394 , Blvrd. Sinaloa, Las Quintas",
      "phone": "667 466 1698",
      "website": null,
      "hours": "Cerrado",
      "profileUrl": "https://www.google.com/maps/place/Lavander%C3%ADa+Barcelona/data=!4m7!3m6!1s0x86bcd7573fffffc3:0x76cd80da7d2df2b3!8m2!3d24.813151!4d-107.374535!16s%2Fg%2F11gbfdkyzy!19sChIJw___P1fXvIYRs_ItfdqAzXY?authuser=0&hl=es&rclk=1",
      "scrapedAt": "2026-01-11T22:19:55.490Z"
    },
    {
      "position": 10,
      "name": "Lavanderia La Familiar",
      "rating": 3.6,
      "reviewCount": null,
      "category": "Tintorería",
      "address": "Blvrd Dr Mora 904",
      "phone": "667 715 9292",
      "website": null,
      "hours": "Cerrado",
      "profileUrl": "https://www.google.com/maps/place/Lavanderia+La+Familiar/data=!4m7!3m6!1s0x86bcd7568e776f13:0x946f81fb74f15f06!8m2!3d24.8134585!4d-107.3777916!16s%2Fg%2F1tsyq6qg!19sChIJE293jlbXvIYRBl_xdPuBb5Q?authuser=0&hl=es&rclk=1",
      "scrapedAt": "2026-01-11T22:19:55.490Z"
    },
    {
      "position": 11,
      "name": "Lavanderia La morena",
      "rating": null,
      "reviewCount": null,
      "category": "No hay reseñas",
      "address": "Blvrd Dr Mora 1613",
      "phone": "667 432 1109",
      "website": null,
      "hours": "Cerrado",
      "profileUrl": "https://www.google.com/maps/place/Lavanderia+La+morena/data=!4m7!3m6!1s0x86bcd7faee95a16f:0x7f5303475d5600e5!8m2!3d24.815196!4d-107.3700244!16s%2Fg%2F11qq0q6z27!19sChIJb6GV7vrXvIYR5QBWXUcDU38?authuser=0&hl=es&rclk=1",
      "scrapedAt": "2026-01-11T22:19:55.572Z"
    },
    {
      "position": 12,
      "name": "Master Clean Lavandería, Planchaduría y Tintorería",
      "rating": 5,
      "reviewCount": null,
      "category": "Lavandería",
      "address": "Blvrd Dr Mora 1884",
      "phone": "667 203 8270",
      "website": null,
      "hours": null,
      "profileUrl": "https://www.google.com/maps/place/Master+Clean+Lavander%C3%ADa,+Planchadur%C3%ADa+y+Tintorer%C3%ADa/data=!4m7!3m6!1s0x86bcd7296adf5f5b:0xf031a972a2d18e44!8m2!3d24.8156882!4d-107.3641329!16s%2Fg%2F11hz9d0myp!19sChIJW1_fainXvIYRRI7RonKpMfA?authuser=0&hl=es&rclk=1",
      "scrapedAt": "2026-01-11T22:19:55.594Z"
    },
    {
      "position": 13,
      "name": "Tintorería Max Culiacan II",
      "rating": 3.8,
      "reviewCount": null,
      "category": "Servicio de lavandería",
      "address": "P.º Niños Heroes 946 Oriente",
      "phone": null,
      "website": "http://www.tintoreriasmax.com/",
      "hours": "Cerrado",
      "profileUrl": "https://www.google.com/maps/place/Tintorer%C3%ADa+Max+Culiacan+II/data=!4m7!3m6!1s0x86bcd1da5821c8ef:0xad8f58222d78e497!8m2!3d24.8167721!4d-107.3814182!16s%2Fg%2F1thx4h9t!19sChIJ78ghWNrRvIYRl-R4LSJYj60?authuser=0&hl=es&rclk=1",
      "scrapedAt": "2026-01-11T22:19:55.596Z"
    },
    {
      "position": 14,
      "name": "Ito's Culiacán",
      "rating": 4.2,
      "reviewCount": null,
      "category": "Tintorería",
      "address": "Calle Universitarios Ote. 264",
      "phone": "667 688 2680",
      "website": "https://www.facebook.com/itostintoreria/",
      "hours": "· Cierra a las 7 p.m.",
      "profileUrl": "https://www.google.com/maps/place/Ito%27s+Culiac%C3%A1n/data=!4m7!3m6!1s0x86bcdb941a04f709:0x272984da84bbca4a!8m2!3d24.8313166!4d-107.3901731!16s%2Fg%2F11h0rm0d66!19sChIJCfcEGpTbvIYRSsq7hNqEKSc?authuser=0&hl=es&rclk=1",
      "scrapedAt": "2026-01-11T22:19:55.596Z"
    },
    {
      "position": 15,
      "name": "Klinko Culiacán",
      "rating": 5,
      "reviewCount": null,
      "category": "Lavandería de autoservicio",
      "address": "Calle Universitarios Ote. 264",
      "phone": "667 688 2680",
      "website": "https://klinko.com.mx/klinko-culiacan/",
      "hours": "· Cierra a las 9 p.m.",
      "profileUrl": "https://www.google.com/maps/place/Klinko+Culiac%C3%A1n/data=!4m7!3m6!1s0x86bcdbcf95806db7:0x24b2b679bf273cc8!8m2!3d24.8313848!4d-107.3901523!16s%2Fg%2F11xtzh02_h!19sChIJt22Alc_bvIYRyDwnv3m2siQ?authuser=0&hl=es&rclk=1",
      "scrapedAt": "2026-01-11T22:19:55.596Z"
    },
    {
      "position": 16,
      "name": "Tintorería Pretty Clean - Tres Rios",
      "rating": 4.3,
      "reviewCount": null,
      "category": "Tintorería",
      "address": "Retorno José, Diego Valadés Ríos 1517 OTE-Local 2",
      "phone": "667 223 3742",
      "website": null,
      "hours": "Cerrado",
      "profileUrl": "https://www.google.com/maps/place/Tintorer%C3%ADa+Pretty+Clean+-+Tres+Rios/data=!4m7!3m6!1s0x86bcd939cc8c7611:0x5580223619ddb728!8m2!3d24.8213246!4d-107.3814514!16s%2Fg%2F11vqhsq585!19sChIJEXaMzDnZvIYRKLfdGTYigFU?authuser=0&hl=es&rclk=1",
      "scrapedAt": "2026-01-11T22:19:55.596Z"
    },
    {
      "position": 17,
      "name": "Central De Lavado",
      "rating": null,
      "reviewCount": null,
      "category": "No hay reseñas",
      "address": "Blvrd Sinaloa 669(3",
      "phone": null,
      "website": null,
      "hours": null,
      "profileUrl": "https://www.google.com/maps/place/Central+De+Lavado/data=!4m7!3m6!1s0x86bcd74a8ac7aed3:0xe67ded608591aea1!8m2!3d24.8116355!4d-107.3738897!16s%2Fg%2F11ghtghxy6!19sChIJ067HikrXvIYRoa6RhWDtfeY?authuser=0&hl=es&rclk=1",
      "scrapedAt": "2026-01-11T22:19:55.596Z"
    },
    {
      "position": 18,
      "name": "Plancha Miss Tela's",
      "rating": null,
      "reviewCount": null,
      "category": "No hay reseñas",
      "address": "Blvrd Sinaloa, Las Quintas",
      "phone": "667 154 4706",
      "website": null,
      "hours": "Cerrado",
      "profileUrl": "https://www.google.com/maps/place/Plancha+Miss+Tela%27s/data=!4m7!3m6!1s0x86bcd7576a131f93:0xb4e6ecd5c9da544a!8m2!3d24.813239!4d-107.3742704!16s%2Fg%2F11w55vg00s!19sChIJkx8TalfXvIYRSlTaydXs5rQ?authuser=0&hl=es&rclk=1",
      "scrapedAt": "2026-01-11T22:19:55.596Z"
    },
    {
      "position": 19,
      "name": "Tintorería Del Noroeste",
      "rating": null,
      "reviewCount": null,
      "category": "No hay reseñas",
      "address": "Gran Avenida El Dorado, Las Quintas",
      "phone": null,
      "website": null,
      "hours": null,
      "profileUrl": "https://www.google.com/maps/place/Tintorer%C3%ADa+Del+Noroeste/data=!4m7!3m6!1s0x86bcd75928892fdf:0xf731a47bdcea4f!8m2!3d24.8151874!4d-107.3678217!16s%2Fg%2F11gfn42_dy!19sChIJ3y-JKFnXvIYRT-rce6Qx9wA?authuser=0&hl=es&rclk=1",
      "scrapedAt": "2026-01-11T22:19:55.596Z"
    },
    {
      "position": 20,
      "name": "AquaMatic Lavanderías Colegio Militar",
      "rating": 4.6,
      "reviewCount": null,
      "category": "Servicio de lavandería",
      "address": "Heroico Colegio Militar 1750",
      "phone": "667 283 1693",
      "website": "http://www.aquamatic.com.mx/",
      "hours": "· Cierra a las 10:30 p.m.",
      "profileUrl": "https://www.google.com/maps/place/AquaMatic+Lavander%C3%ADas+Colegio+Militar/data=!4m7!3m6!1s0x86bcd767f5396e2f:0x5e945256b2704125!8m2!3d24.7851781!4d-107.3703551!16s%2Fg%2F11pkbs1zbw!19sChIJL2459WfXvIYRJUFwslZSlF4?authuser=0&hl=es&rclk=1",
      "scrapedAt": "2026-01-11T22:19:55.596Z"
    },
    {
      "position": 21,
      "name": "Titoreria La Familiar",
      "rating": 5,
      "reviewCount": null,
      "category": "Tintorería",
      "address": "Blvrd Dr Mora 1702A",
      "phone": "667 690 7359",
      "website": null,
      "hours": null,
      "profileUrl": "https://www.google.com/maps/place/Titoreria+La+Familiar/data=!4m7!3m6!1s0x86bcd758d738e3f7:0xe76d9307491060ff!8m2!3d24.8156754!4d-107.3677834!16s%2Fg%2F11dym3q44n!19sChIJ9-M411jXvIYR_2AQSQeTbec?authuser=0&hl=es&rclk=1",
      "scrapedAt": "2026-01-11T22:19:55.596Z"
    },
    {
      "position": 22,
      "name": "AMAZONIA SELFCARE",
      "rating": 5,
      "reviewCount": null,
      "category": "Spa y gimnasio",
      "address": "Blvrd Sinaloa, Las Quintas",
      "phone": "667 309 0251",
      "website": null,
      "hours": "Cerrado",
      "profileUrl": "https://www.google.com/maps/place/AMAZONIA+SELFCARE/data=!4m7!3m6!1s0x86bcd750af52151f:0x12ea1c4164804445!8m2!3d24.8111894!4d-107.373445!16s%2Fg%2F11vt7gp8zz!19sChIJHxVSr1DXvIYRRUSAZEEc6hI?authuser=0&hl=es&rclk=1",
      "scrapedAt": "2026-01-11T22:19:55.596Z"
    },
    {
      "position": 23,
      "name": "Plancha Miss Tela's",
      "rating": null,
      "reviewCount": null,
      "category": "No hay reseñas",
      "address": "Blvrd Sinaloa, Las Quintas",
      "phone": "667 154 4706",
      "website": null,
      "hours": "Cerrado",
      "profileUrl": "https://www.google.com/maps/place/Plancha+Miss+Tela%27s/data=!4m7!3m6!1s0x86bcd7576a131f93:0xb4e6ecd5c9da544a!8m2!3d24.813239!4d-107.3742704!16s%2Fg%2F11w55vg00s!19sChIJkx8TalfXvIYRSlTaydXs5rQ?authuser=0&hl=es&rclk=1",
      "scrapedAt": "2026-01-11T22:19:55.596Z"
    },
    {
      "position": 24,
      "name": "Lavanderia la burbuja",
      "rating": 3.8,
      "reviewCount": null,
      "category": "Lavandería",
      "address": "Av. Teniente Juan de la Barrera Nte. 2057",
      "phone": "667 481 8986",
      "website": null,
      "hours": "· Cierra a las 6 p.m.",
      "profileUrl": "https://www.google.com/maps/place/Lavanderia+la+burbuja/data=!4m7!3m6!1s0x86bcdbce08c0d3b9:0xe8d85091aa1b3005!8m2!3d24.8275787!4d-107.3919022!16s%2Fg%2F11h91_pvkc!19sChIJudPACM7bvIYRBTAbqpFQ2Og?authuser=0&hl=es&rclk=1",
      "scrapedAt": "2026-01-11T22:19:55.596Z"
    },
    {
      "position": 25,
      "name": "Master Clean Lavandería, Planchaduría y Tintorería",
      "rating": 5,
      "reviewCount": null,
      "category": "Lavandería",
      "address": "Blvrd Dr Mora 1884",
      "phone": "667 203 8270",
      "website": null,
      "hours": null,
      "profileUrl": "https://www.google.com/maps/place/Master+Clean+Lavander%C3%ADa,+Planchadur%C3%ADa+y+Tintorer%C3%ADa/data=!4m7!3m6!1s0x86bcd7296adf5f5b:0xf031a972a2d18e44!8m2!3d24.8156882!4d-107.3641329!16s%2Fg%2F11hz9d0myp!19sChIJW1_fainXvIYRRI7RonKpMfA?authuser=0&hl=es&rclk=1",
      "scrapedAt": "2026-01-11T22:19:55.596Z"
    },
    {
      "position": 26,
      "name": "Planchamax",
      "rating": 5,
      "reviewCount": null,
      "category": "Tintorería",
      "address": "Estatuto Jurídico 1369",
      "phone": null,
      "website": null,
      "hours": null,
      "profileUrl": "https://www.google.com/maps/place/Planchamax/data=!4m7!3m6!1s0x86bcda01cc8d172d:0x6aedfe46d24ba48a!8m2!3d24.8190865!4d-107.3859303!16s%2Fg%2F11y3ytfjd9!19sChIJLReNzAHavIYRiqRL0kb-7Wo?authuser=0&hl=es&rclk=1",
      "scrapedAt": "2026-01-11T22:19:55.596Z"
    },
    {
      "position": 27,
      "name": "Like a New",
      "rating": 5,
      "reviewCount": null,
      "category": "Lavandería",
      "address": "C. 22 de Diciembre 879-Interior 3",
      "phone": "667 482 7895",
      "website": "https://likeanew.godaddysites.com/",
      "hours": "· Cierra a las 8 p.m.",
      "profileUrl": "https://www.google.com/maps/place/Like+a+New/data=!4m7!3m6!1s0x86bcd74f67e51b69:0x6356f4d9f71fb9c8!8m2!3d24.7887804!4d-107.3828966!16s%2Fg%2F11y2hj1f7f!19sChIJaRvlZ0_XvIYRyLkf99n0VmM?authuser=0&hl=es&rclk=1",
      "scrapedAt": "2026-01-11T22:19:55.596Z"
    },
    {
      "position": 28,
      "name": "Planchaduria angelito",
      "rating": 5,
      "reviewCount": null,
      "category": "Servicio de lavandería",
      "address": "Estado de Puebla 1419",
      "phone": "667 295 9134",
      "website": null,
      "hours": "Cerrado",
      "profileUrl": "https://www.google.com/maps/place/Planchaduria+angelito/data=!4m7!3m6!1s0x86bcd79b9988cec7:0xe4be4128e6cac634!8m2!3d24.8152062!4d-107.3736847!16s%2Fg%2F11nyjq4srq!19sChIJx86ImZvXvIYRNMbK5ihBvuQ?authuser=0&hl=es&rclk=1",
      "scrapedAt": "2026-01-11T22:19:55.596Z"
    },
    {
      "position": 29,
      "name": "Tintorería Pretty Clean - Las Quintas",
      "rating": 4.5,
      "reviewCount": null,
      "category": "Tintorería",
      "address": "Blvrd Sinaloa 1116-L-2",
      "phone": "667 584 2586",
      "website": null,
      "hours": "Cerrado",
      "profileUrl": "https://www.google.com/maps/place/Tintorer%C3%ADa+Pretty+Clean+-+Las+Quintas/data=!4m7!3m6!1s0x86bcd9eefa0c0063:0x61b3afb5720a6919!8m2!3d24.818906!4d-107.3737568!16s%2Fg%2F11ld2bywnp!19sChIJYwAM-u7ZvIYRGWkKcrWvs2E?authuser=0&hl=es&rclk=1",
      "scrapedAt": "2026-01-11T22:19:55.596Z"
    },
    {
      "position": 30,
      "name": "Lavanderia La Familiar",
      "rating": 3,
      "reviewCount": null,
      "category": "Lavandería",
      "address": "Av Revolución 610",
      "phone": null,
      "website": null,
      "hours": null,
      "profileUrl": "https://www.google.com/maps/place/Lavanderia+La+Familiar/data=!4m7!3m6!1s0x86bcd75c65d13cad:0xac2b67e387c77dff!8m2!3d24.8104263!4d-107.3660384!16s%2Fg%2F1tfgpv7x!19sChIJrTzRZVzXvIYR_33Hh-NnK6w?authuser=0&hl=es&rclk=1",
      "scrapedAt": "2026-01-11T22:19:55.596Z"
    },
    {
      "position": 31,
      "name": "Tintoreria y lavanderia los 3 Hnos",
      "rating": 5,
      "reviewCount": null,
      "category": "Servicio de lavandería",
      "address": "Calle Constitución 127",
      "phone": "667 324 5809",
      "website": null,
      "hours": "Cerrado",
      "profileUrl": "https://www.google.com/maps/place/Tintoreria+y+lavanderia+los+3+Hnos/data=!4m7!3m6!1s0x86bcd1dfe605d363:0xc6f3ff417972ef4e!8m2!3d24.7994001!4d-107.3925023!16s%2Fg%2F11q2t78zt2!19sChIJY9MF5t_RvIYRTu9yeUH_88Y?authuser=0&hl=es&rclk=1",
      "scrapedAt": "2026-01-11T22:19:55.596Z"
    },
    {
      "position": 32,
      "name": "Lavandería Trapitos",
      "rating": null,
      "reviewCount": null,
      "category": "No hay reseñas",
      "address": "Blvrd Dr Manuel Romero 598",
      "phone": "667 100 0803",
      "website": null,
      "hours": "Cerrado",
      "profileUrl": "https://www.google.com/maps/place/Lavander%C3%ADa+Trapitos/data=!4m7!3m6!1s0x86bcd99fa92ea27b:0x9d91bf8a74596972!8m2!3d24.8183413!4d-107.3848262!16s%2Fg%2F11sc655s3x!19sChIJe6IuqZ_ZvIYRcmlZdIq_kZ0?authuser=0&hl=es&rclk=1",
      "scrapedAt": "2026-01-11T22:19:55.596Z"
    },
    {
      "position": 33,
      "name": "AquaMatic Lavanderías Las Torres",
      "rating": 4.5,
      "reviewCount": null,
      "category": "Lavandería de autoservicio",
      "address": "Calz. de las Torres 2856",
      "phone": "667 257 8709",
      "website": "https://www.aquamatic.com.mx/",
      "hours": "· Cierra a las 10 p.m.",
      "profileUrl": "https://www.google.com/maps/place/AquaMatic+Lavander%C3%ADas+Las+Torres/data=!4m7!3m6!1s0x86bcd10ad126224f:0x9575e51cf76346d6!8m2!3d24.7537505!4d-107.4199946!16s%2Fg%2F11j2ztqx_9!19sChIJTyIm0QrRvIYR1kZj9xzldZU?authuser=0&hl=es&rclk=1",
      "scrapedAt": "2026-01-11T22:19:55.596Z"
    },
    {
      "position": 34,
      "name": "Bubba clean",
      "rating": 5,
      "reviewCount": null,
      "category": "Lavandería de autoservicio",
      "address": "5,0",
      "phone": "80065 Cancun 1494 local 3 olaza Bariloche, Fracc Musalá Isla Bonita",
      "website": null,
      "hours": "Cerrado",
      "profileUrl": "https://www.google.com/maps/place/Bubba+clean/data=!4m7!3m6!1s0x86bcd9a8b83812f5:0x1206f2517f52a6df!8m2!3d24.82342!4d-107.3689067!16s%2Fg%2F11h6d6149n!19sChIJ9RI4uKjZvIYR36ZSf1HyBhI?authuser=0&hl=es&rclk=1",
      "scrapedAt": "2026-01-11T22:19:55.596Z"
    },
    {
      "position": 35,
      "name": "Lavanderia maxi clean express",
      "rating": 3,
      "reviewCount": null,
      "category": "Lavandería",
      "address": "Col. Guadalupe #222 Ote. Blvar Ciudades Hermanas, Blvd. Ciudades Hermanas 222",
      "phone": null,
      "website": null,
      "hours": "Cerrado",
      "profileUrl": "https://www.google.com/maps/place/Lavanderia+maxi+clean+express/data=!4m7!3m6!1s0x86bcd0b5823210c3:0x73a56663fe88dc62!8m2!3d24.7930206!4d-107.3893215!16s%2Fg%2F11g6pgvz01!19sChIJwxAygrXQvIYRYtyI_mNmpXM?authuser=0&hl=es&rclk=1",
      "scrapedAt": "2026-01-11T22:19:55.596Z"
    },
    {
      "position": 36,
      "name": "LAVANDERIA GASA",
      "rating": 5,
      "reviewCount": null,
      "category": "Lavandería",
      "address": "Av Revolución 177",
      "phone": "667 531 8985",
      "website": null,
      "hours": "Cerrado",
      "profileUrl": "https://www.google.com/maps/place/LAVANDERIA+GASA/data=!4m7!3m6!1s0x86bcd7005f1d50f7:0x5d07acec0bef1fb5!8m2!3d24.8004203!4d-107.3659877!16s%2Fg%2F11x13pxz0r!19sChIJ91AdXwDXvIYRtR_vC-ysB10?authuser=0&hl=es&rclk=1",
      "scrapedAt": "2026-01-11T22:19:55.596Z"
    },
    {
      "position": 37,
      "name": "Tintorería y Lavanderia La Familiar Sanalona",
      "rating": 1,
      "reviewCount": null,
      "category": "Servicio de lavandería",
      "address": "Blvd. Francisco I. Madero 1860",
      "phone": "667 531 0680",
      "website": null,
      "hours": "Cerrado",
      "profileUrl": "https://www.google.com/maps/place/Tintorer%C3%ADa+y+Lavanderia+La+Familiar+Sanalona/data=!4m7!3m6!1s0x86bcd74d5db63485:0x990b6ab20662d2e1!8m2!3d24.8021125!4d-107.3698456!16s%2Fg%2F11thcdlw5g!19sChIJhTS2XU3XvIYR4dJiBrJqC5k?authuser=0&hl=es&rclk=1",
      "scrapedAt": "2026-01-11T22:19:55.596Z"
    },
    {
      "position": 38,
      "name": "Tintorería Pretty Clean - Tres Rios",
      "rating": 4.3,
      "reviewCount": null,
      "category": "Tintorería",
      "address": "Retorno José, Diego Valadés Ríos 1517 OTE-Local 2",
      "phone": "667 223 3742",
      "website": null,
      "hours": "Cerrado",
      "profileUrl": "https://www.google.com/maps/place/Tintorer%C3%ADa+Pretty+Clean+-+Tres+Rios/data=!4m7!3m6!1s0x86bcd939cc8c7611:0x5580223619ddb728!8m2!3d24.8213246!4d-107.3814514!16s%2Fg%2F11vqhsq585!19sChIJEXaMzDnZvIYRKLfdGTYigFU?authuser=0&hl=es&rclk=1",
      "scrapedAt": "2026-01-11T22:19:55.596Z"
    },
    {
      "position": 39,
      "name": "Casa de Pic",
      "rating": null,
      "reviewCount": null,
      "category": "No hay reseñas",
      "address": "Cecilia Zadi y o Séptima 817",
      "phone": null,
      "website": null,
      "hours": null,
      "profileUrl": "https://www.google.com/maps/place/Casa+de+Pic/data=!4m7!3m6!1s0x86bcd7002ddaf555:0x9f4d1bbc70367eab!8m2!3d24.8091541!4d-107.3690545!16s%2Fg%2F11ybzlvhgl!19sChIJVfXaLQDXvIYRq342cLwbTZ8?authuser=0&hl=es&rclk=1",
      "scrapedAt": "2026-01-11T22:19:55.597Z"
    },
    {
      "position": 40,
      "name": "Lava Express",
      "rating": 4.3,
      "reviewCount": null,
      "category": "Lavandería",
      "address": "Av. Teófilo Noris 245",
      "phone": "667 716 1987",
      "website": null,
      "hours": null,
      "profileUrl": "https://www.google.com/maps/place/Lava+Express/data=!4m7!3m6!1s0x86bcd0bb484a43a9:0xa98e0d47bd307ee8!8m2!3d24.8021994!4d-107.4012374!16s%2Fg%2F1tptr13j!19sChIJqUNKSLvQvIYR6H4wvUcNjqk?authuser=0&hl=es&rclk=1",
      "scrapedAt": "2026-01-11T22:19:55.597Z"
    },
    {
      "position": 41,
      "name": "Lavanderia maxi clean express",
      "rating": 3,
      "reviewCount": null,
      "category": "Lavandería",
      "address": "Col. Guadalupe #222 Ote. Blvar Ciudades Hermanas, Blvd. Ciudades Hermanas 222",
      "phone": null,
      "website": null,
      "hours": "Cerrado",
      "profileUrl": "https://www.google.com/maps/place/Lavanderia+maxi+clean+express/data=!4m7!3m6!1s0x86bcd0b5823210c3:0x73a56663fe88dc62!8m2!3d24.7930206!4d-107.3893215!16s%2Fg%2F11g6pgvz01!19sChIJwxAygrXQvIYRYtyI_mNmpXM?authuser=0&hl=es&rclk=1",
      "scrapedAt": "2026-01-11T22:19:55.597Z"
    },
    {
      "position": 42,
      "name": "El Planchazo Planchaduria",
      "rating": null,
      "reviewCount": null,
      "category": "No hay reseñas",
      "address": "Del Guamuchil 1785",
      "phone": null,
      "website": null,
      "hours": null,
      "profileUrl": "https://www.google.com/maps/place/El+Planchazo+Planchaduria/data=!4m7!3m6!1s0x86bcd75f4a2a8713:0x554bbcc98fa28bc4!8m2!3d24.8171159!4d-107.3667755!16s%2Fg%2F11w1q3sll6!19sChIJE4cqSl_XvIYRxIuij8m8S1U?authuser=0&hl=es&rclk=1",
      "scrapedAt": "2026-01-11T22:19:55.597Z"
    },
    {
      "position": 43,
      "name": "Lavandería y Planchado Lupita",
      "rating": 4.5,
      "reviewCount": null,
      "category": "Lavandería",
      "address": "C. Monte Casino 2730",
      "phone": null,
      "website": null,
      "hours": "Abierto las 24 horas",
      "profileUrl": "https://www.google.com/maps/place/Lavander%C3%ADa+y+Planchado+Lupita/data=!4m7!3m6!1s0x86bcd7afb7be1743:0xc50d4d5036ae653a!8m2!3d24.7829412!4d-107.3842298!16s%2Fg%2F11t9rgx0bq!19sChIJQxe-t6_XvIYROmWuNlBNDcU?authuser=0&hl=es&rclk=1",
      "scrapedAt": "2026-01-11T22:19:55.597Z"
    },
    {
      "position": 44,
      "name": "Tintoreria y lavanderia los 3 Hnos",
      "rating": 5,
      "reviewCount": null,
      "category": "Servicio de lavandería",
      "address": "Calle Constitución 127",
      "phone": "667 324 5809",
      "website": null,
      "hours": "Cerrado",
      "profileUrl": "https://www.google.com/maps/place/Tintoreria+y+lavanderia+los+3+Hnos/data=!4m7!3m6!1s0x86bcd1dfe605d363:0xc6f3ff417972ef4e!8m2!3d24.7994001!4d-107.3925023!16s%2Fg%2F11q2t78zt2!19sChIJY9MF5t_RvIYRTu9yeUH_88Y?authuser=0&hl=es&rclk=1",
      "scrapedAt": "2026-01-11T22:19:55.597Z"
    },
    {
      "position": 45,
      "name": "LA PLANCHADURIA",
      "rating": null,
      "reviewCount": null,
      "category": "No hay reseñas",
      "address": "Gran Avenida El Dorado 1632",
      "phone": null,
      "website": null,
      "hours": null,
      "profileUrl": "https://www.google.com/maps/place/LA+PLANCHADURIA/data=!4m7!3m6!1s0x86bcd9e284053edd:0xaa613d516b93f375!8m2!3d24.8183372!4d-107.3705089!16s%2Fg%2F11y3ytc_nf!19sChIJ3T4FhOLZvIYRdfOTa1E9Yao?authuser=0&hl=es&rclk=1",
      "scrapedAt": "2026-01-11T22:19:55.597Z"
    }
  ]
}